Time,X_pos_Lat,X_pos_Lon,Y_pos_m,Z_pos_m,vx_ms,vy_ms,vz_ms,Roll_rad,Pitch_rad,Yaw_rad,Hundimiento_Izq_mm,Hundimiento_Der_mm,Alineacion_Izq_mm,Alineacion_Der_mm
0.0,19.442593,-99.172165,2240.3423,0.0,0.003567444,0.01982858,15.008946,-0.0003538536437676474,0.0123922555,-0.0006221981,7.850420000113502,8.358200000113527,-2.0719308,2.0719308
0.1,19.442421,-99.172646,2240.3394,1.5006556,0.0045479904,0.021072723,15.006556,-0.0004980626765858205,0.014303424,-0.00011944983,10.563380000067639,11.278100000067639,-1.5396263,1.5396263
0.2,19.441359,-99.17201,2240.3428,3.0015408,0.003604735,0.019216936,15.008852,-0.0002319999958376118,0.014893482,-0.000920452,7.440720000011652,7.773640000011653,-2.62796715,2.62796715
0.3,19.441792,-99.17237,2240.3386,4.502202499999999,0.0038112598,0.021978293,15.006617,-0.00042599300559054056,0.012752042,-0.00022245759,11.50756999986686,12.118869999866831,-1.4155862,1.4155862
0.4,19.44184,-99.17219,2240.34,6.0030588,0.004217015,0.02280489,15.008563,-0.0005411497729600077,0.009043251,-0.0011790901,10.075069999763514,10.851619999763557,-2.9295204999999997,2.9295204999999997
0.5,19.44182,-99.17231,2240.3413,7.503886999999999,0.0032201628,0.021190338,15.008282,-0.00031567943202250547,0.011332407,8.11606e-05,8.915819999862492,9.368819999862467,-0.94911195,0.94911195
0.6,19.441227,-99.1724,2240.3396,9.004604099999998,0.0033313453,0.017842613,15.007171,-0.00024035539606838177,0.01389397,-0.00097417075,10.700870000117845,11.045780000117873,-2.637419,2.637419
0.7,19.441826,-99.17225,2240.3384,10.505384399999997,0.004521301,0.022990502,15.007803,-0.0005131637180211794,0.012105475,0.0005696246,11.609579999816674,12.345969999816646,-0.17267053999999998,0.17267053999999998
0.8,19.441828,-99.17236,2240.3406,12.006058599999998,0.003225566,0.021209616,15.006742,-0.0003526411003649179,0.015155307,-8.757939e-06,9.530399999914152,10.036439999914137,-1.19832005,1.19832005
0.9,19.441582,-99.17229,2240.3406,13.506840999999998,0.0043762308,0.02402062,15.007824,-0.0004737560621169522,0.012819084,-0.00023155862,9.47137999991412,10.151219999914133,-1.72080285,1.72080285
1.0,19.441113,-99.172,2240.3362,15.007548699999997,0.0043217037,0.017566789,15.007077,-0.0003710104359386283,0.012854659,-0.0011301218,13.96469999971913,14.497099999719126,-2.5503132500000003,2.5503132500000003
1.1,19.441732,-99.17204,2240.34,16.5083058,0.003911546,0.020951815,15.007571,-0.0003264808246371032,0.0132086305,-0.00095251354,10.17059999976351,10.639099999763516,-2.4921661,2.4921661
1.2,19.441296,-99.17189,2240.3381,18.009260199999996,0.0052598487,0.017763417,15.009544,-0.0002671080075848323,0.011195584,-0.0014967244,12.164219999968736,12.5475199999687,-3.1371047,3.1371047
1.3,19.441557,-99.17218,2240.339,19.510031599999998,0.004201249,0.019180514,15.007714,-0.0004497421299559637,0.010727129,-0.0012988903,11.152499999967233,11.797879999967279,-3.1511109999999998,3.1511109999999998
1.4,19.442196,-99.17219,2240.3396,21.010795899999994,0.00622608,0.019617777,15.007643,-0.00048743550146584247,0.0138567565,-0.00037273264,10.34186000011789,11.041330000117853,-2.003209,2.003209
1.5,19.44203,-99.17225,2240.3406,22.511641099999995,0.0041603064,0.01792889,15.008452,-0.0002402508664576798,0.012658556,-0.0006542736,9.681399999914163,10.02615999991417,-2.11381865,2.11381865
1.6,19.44191,-99.17181,2240.3413,24.012651099999996,0.00482266,0.018329069,15.0101,-0.00010952613196618948,0.01259732,-0.0005802056,9.022169999862513,9.179339999862464,-1.70310775,1.70310775
1.7,19.441813,-99.17254,2240.3418,25.513498249999994,0.0031830568,0.020506427,15.0084715,-0.00023414633718439796,0.012761458,0.0004696856,8.557179999760649,8.893179999760605,-0.42500330000000003,0.42500330000000003
1.8,19.442606,-99.17217,2240.3445,27.014563449999997,0.0038947884,0.019613054,15.010652,-0.00021579093741702903,0.011077716,-0.0007095235,5.782139999756282,6.091799999756233,-2.29656625,2.29656625
1.9,19.44167,-99.17212,2240.3406,28.515460049999994,0.0045861867,0.01851726,15.008966,-0.0003831776815950758,0.011849335,-0.001242942,9.488379999914116,10.03823999991414,-3.0470977,3.0470977
2.0,19.44171,-99.171814,2240.34,30.016302849999995,0.0042369585,0.019933052,15.008428,-0.00038050172379706546,0.012874602,-0.00151753,10.077819999763506,10.623839999763504,-3.2265978,3.2265978
2.1,19.442013,-99.17233,2240.342,31.517139549999996,0.0034034862,0.018742573,15.008367,-0.00019375609513633214,0.013025218,-0.00088901975,8.229459999810842,8.507499999810818,-2.45675935,2.45675935
2.2,19.441622,-99.17255,2240.339,33.017721099999996,0.003638668,0.021068245,15.0058155,-0.00045370728594124396,0.0136293275,-0.00065518246,11.073329999967257,11.724399999967261,-2.3133865,2.3133865
2.3,19.441545,-99.17221,2240.3406,34.51850259999999,0.0031144803,0.020309474,15.007815,-0.0003355818689358963,0.013808458,0.0003847456,9.61413999991413,10.095699999914132,-0.4567761,0.4567761
2.4,19.441187,-99.17199,2240.3367,36.019297599999994,0.0042639794,0.022262432,15.00795,-0.00045836233723791557,0.011801108,0.00015855217,13.374000000072044,14.031750000072009,-0.439815225,0.439815225
2.5,19.441801,-99.17196,2240.3381,37.5200317,0.0051561384,0.021633714,15.007341,-0.00047398602722208106,0.011712472,-0.0012461558,11.918679999968731,12.598849999968706,-2.8948928,2.8948928
2.6,19.440699,-99.17255,2240.3406,39.0208867,0.0043847915,0.02451564,15.00855,-0.00036262019316516574,0.010129665,-0.0011505304,9.55889999991416,10.079259999914143,-3.0514095,3.0514095
2.7,19.44141,-99.17195,2240.342,40.5218176,0.003920791,0.01876909,15.009309,-0.00014178397117536035,0.013287059,-0.0011503848,8.300569999810818,8.504029999810825,-2.85239865,2.85239865
2.8,19.441801,-99.17205,2240.34,42.022675299999996,0.003680574,0.022536099,15.008577,-0.00038749823844480384,0.010907595,0.00021043594,10.12191999976352,10.677979999763522,-0.46049227000000004,0.46049227000000004
2.9,19.441784,-99.17228,2240.3386,43.5233645,0.004646908,0.021143306,15.006892,-0.00047963759388146694,0.012614797,-0.00073481206,11.398319999866828,12.086599999866849,-2.21503015,2.21503015
3.0,19.441904,-99.17228,2240.3413,45.0242406,0.0032499891,0.020167552,15.008761,-0.00035859231912451216,0.010598424,-0.000616441,8.887619999862466,9.40219999986249,-1.9553657500000001,1.9553657500000001
3.1,19.440948,-99.17196,2240.335,46.5247988,0.0046607903,0.01991712,15.005582,-0.0006190452170910197,0.012161515,-0.0010487926,14.982239999872661,15.870569999872657,-2.4310785,2.4310785
3.2,19.441227,-99.17188,2240.3389,48.025627300000004,0.0034099203,0.019067544,15.008285,-0.00043864108685019726,0.0111314235,-0.00072897185,11.227999999714768,11.857449999714788,-1.971735,1.971735
3.3,19.44176,-99.17209,2240.3408,49.526513099999995,0.004302243,0.019957926,15.008858,-0.00027319163083421467,0.012496344,3.3291042e-05,9.407549999964374,9.799579999964351,-1.0094127,1.0094127
3.4,19.441198,-99.171616,2240.342,51.02757149999999,0.004954935,0.020301603,15.010584,-0.00013381184589120445,0.013061783,-0.0017864858,8.268249999810848,8.460269999810805,-3.7128745,3.7128745
3.5,19.441368,-99.17223,2240.3381,52.52834429999999,0.0044262633,0.023326524,15.007728,-0.0004978396801254428,0.011429676,0.000725673,11.884999999968727,12.599399999968739,0.11093886,-0.11093886
3.6,19.440893,-99.17228,2240.3408,54.02904699999999,0.002866683,0.022535156,15.007027,-0.0003042020812088282,0.013991821,-0.00047647176,9.416029999964337,9.852559999964342,-1.9622734999999998,1.9622734999999998
3.7,19.440634,-99.17209,2240.3367,55.52970479999999,0.0044275913,0.01888258,15.006578,-0.0004758884658173362,0.012580623,-0.0013219682,13.369180000072049,14.05208000007201,-2.98670165,2.98670165
3.8,19.441444,-99.17206,2240.339,57.03060509999999,0.0043909973,0.017042954,15.009003,-0.0003644250709754716,0.0125806695,-0.0004023697,11.074099999967245,11.597049999967282,-1.49215035,1.49215035
3.9,19.442259,-99.17237,2240.3418,58.53142909999999,0.00293358,0.020499993,15.00824,-0.00042289196085305934,0.01173759,0.00022563495,8.293049999760626,8.899899999760635,-0.6678076,0.6678076
4.0,19.441507,-99.172035,2240.3396,60.03223729999999,0.004948371,0.019273132,15.008082,-0.00040425084905942627,0.01186745,-0.0013241869,10.492800000117882,11.072900000117897,-3.2186988000000003,3.2186988000000003
4.1,19.442017,-99.17211,2240.343,61.53316969999999,0.004416427,0.022895955,15.009324,-0.0003010940675562334,0.013163705,7.0637466e-06,7.103360000061855,7.535430000061865,-1.1989237,1.1989237
4.2,19.441364,-99.1723,2240.3384,63.033992299999994,0.0047883787,0.017068114,15.008226,-0.00043773516367918465,0.010089957,-0.0010090411,11.742329999816661,12.370479999816666,-2.5941152,2.5941152
4.3,19.441366,-99.17234,2240.3394,64.53483944999999,0.004726808,0.021081664,15.0084715,-0.00044552610292614673,0.010235527,-0.0010444651,10.734200000067688,11.37353000006766,-2.740452,2.740452
4.4,19.441833,-99.17221,2240.341,66.03569855,0.003682554,0.018454999,15.008591,-0.00023865504773383834,0.012223926,0.0006576669,9.260280000014575,9.602750000014566,0.03200428,-0.03200428
4.5,19.441484,-99.17227,2240.3386,67.53651515,0.0050544674,0.01752397,15.008166,-0.0003176097454178132,0.012169349,0.0006496828,11.562229999866872,12.017999999866845,0.08628471500000001,-0.08628471500000001
4.6,19.442186,-99.17204,2240.3428,69.03748055,0.004393019,0.019062914,15.009654,-0.00020919860321995677,0.012914461,-0.0009021309,7.402060000011659,7.70226000001162,-2.474277,2.474277
4.7,19.441341,-99.171906,2240.3389,70.53826565,0.0045309016,0.020533387,15.007851,-0.0004363693102815485,0.01360272,-0.00071317004,11.1146499997148,11.740839999714808,-1.9514656000000001,1.9514656000000001
4.8,19.441475,-99.17209,2240.3408,72.03911445,0.0042105173,0.019927464,15.008488,-0.0002145296134336642,0.01269425,-0.0010014968,9.473199999964322,9.781049999964353,-2.6255915,2.6255915
4.9,19.441402,-99.17251,2240.338,73.53974165000001,0.0040509338,0.02152741,15.006272,-0.0005121253907679311,0.0136156855,0.00040063,12.041469999716242,12.776369999716223,-0.5964079999999999,0.5964079999999999
5.0,19.441408,-99.172356,2240.3398,75.04043895000001,0.003892332,0.021676507,15.006973,-0.0003807386575606854,0.01329846,-0.0008139776,10.315079999713305,10.861439999713355,-2.46121035,2.46121035
5.1,19.441542,-99.17247,2240.3394,76.54120945000001,0.0046715,0.02353711,15.007705,-0.0005285156302326301,0.011299717,-0.0005188957,10.573940000067694,11.332360000067695,-2.0073813,2.0073813
5.2,19.4415,-99.172554,2240.3435,78.04209415000003,0.0031361128,0.018789608,15.008847,-0.00010977700304335252,0.0111411875,-0.000114808674,6.865999999959968,7.023529999959976,-1.2266354,1.2266354
5.3,19.441196,-99.17285,2240.3413,79.54277165000002,0.0037464919,0.020079393,15.006775,-0.000261024384315718,0.013062659,-0.00027475378,8.936149999862494,9.3107199998625,-1.8926965999999998,1.8926965999999998
5.4,19.441408,-99.17205,2240.3396,81.04360775000004,0.005395516,0.018482968,15.008361,-0.0003431149691136595,0.011955782,-0.0015588255,10.522680000117873,11.015050000117867,-3.58795375,3.58795375
5.5,19.440903,-99.172455,2240.34,82.54443545000002,0.0047070435,0.022614107,15.008277,-0.00037622994740514886,0.0097643295,-0.0016215731,10.12645999976354,10.666349999763554,-3.6724517,3.6724517
5.6,19.441778,-99.17265,2240.3408,84.04511170000002,0.0045278626,0.018874172,15.0067625,-0.0005085922906428993,0.015305015,9.060424e-05,9.156239999964328,9.88606999996432,-1.3574193,1.3574193
5.7,19.441338,-99.1721,2240.3408,85.54593370000003,0.003593327,0.015476196,15.00822,-0.00017823693191050362,0.01379821,-0.00089890254,9.456559999964327,9.712329999964368,-2.4470347,2.4470347
5.8,19.440973,-99.17198,2240.3396,87.04671840000003,0.0031139029,0.016438756,15.007847,-0.0003650661858727619,0.013376589,2.1821174e-06,10.517400000117846,11.04127000011789,-0.9348626000000001,0.9348626000000001
5.9,19.44126,-99.172356,2240.3389,88.54736995000005,0.0031220708,0.021040436,15.0065155,-0.0003435958052939201,0.0140363565,0.0011287623,11.296839999714791,11.789899999714805,0.7146442500000001,-0.7146442500000001
6.0,19.440588,-99.17203,2240.3367,90.04801975000004,0.0031887065,0.019572284,15.006498,-0.0004640696530970185,0.011933961,-0.0002227225,13.449960000072053,14.115900000072031,-1.1059905,1.1059905
6.1,19.441969,-99.172035,2240.345,91.54915165000003,0.0037006354,0.017781794,15.011319,-0.00016830661861983145,0.01053742,-0.0006841426,5.319700000109151,5.561220000109131,-2.220237,2.220237
6.2,19.440796,-99.17189,2240.343,93.05020275000004,0.0034549902,0.020343479,15.010511,-0.00024372124952971391,0.011737187,-0.0008842976,7.252560000061862,7.6023000000618595,-2.41979885,2.41979885
6.3,19.44047,-99.17216,2240.336,94.55078095000003,0.004298731,0.02375675,15.005782,-0.0007264876770684093,0.012066788,-0.0007289834,13.85434000012367,14.896850000123663,-2.147459,2.147459
6.4,19.441105,-99.17237,2240.3416,96.05161005000004,0.0032315976,0.021078326,15.008291,-0.0003443275125244396,0.011072553,-0.0018562325,8.557469999710406,9.051579999710441,-4.023168,4.023168
6.5,19.44095,-99.17232,2240.3398,97.55232545000003,0.0038311726,0.021505367,15.007154,-0.00035032751180058655,0.012192274,-0.0017849724,10.361219999713342,10.863939999713352,-3.9415554999999998,3.9415554999999998
6.6,19.44106,-99.17187,2240.3389,99.05324460000003,0.0043689436,0.020581055,15.0091915,-0.0003052682832004108,0.009744014,-0.0004375214,11.264339999714764,11.702399999714771,-1.3139873,1.3139873
6.7,19.441181,-99.1719,2240.3389,100.55399950000003,0.0033066391,0.020550754,15.007549,-0.00039459928265507153,0.011762806,-0.0006760243,11.226219999714772,11.792469999714797,-1.7330278499999998,1.7330278499999998
6.8,19.441545,-99.1724,2240.3416,102.05467870000003,0.0025771447,0.019739516,15.006792,-0.0002672961608815432,0.014322589,0.00014869944,8.603829999710399,8.98739999971042,-0.90167875,0.90167875
6.9,19.440693,-99.171906,2240.3389,103.55546420000003,0.003744785,0.024627019,15.007855,-0.0005417630131982963,0.010016342,-0.0010463106,11.11046999971478,11.887899999714762,-2.4687761999999998,2.4687761999999998
7.0,19.440062,-99.1721,2240.3362,105.05617290000002,0.004403368,0.021687225,15.007087,-0.0005599720669056286,0.0101767825,-0.00070986856,13.828439999719137,14.631999999719142,-2.0505459999999998,2.0505459999999998
7.1,19.440584,-99.172066,2240.3367,106.55687150000001,0.0053903894,0.023686104,15.006986,-0.0006646410171146769,0.010178217,-0.0014934533,13.18968000007203,14.143440000072019,-3.39861635,3.39861635
7.2,19.441677,-99.172066,2240.342,108.05784940000002,0.0034577695,0.018865112,15.009779,-0.00027252960997758855,0.010446486,-0.00058781565,8.195619999810845,8.586699999810833,-1.73234635,1.73234635
7.3,19.4401,-99.17207,2240.336,109.55849430000002,0.0046022628,0.020087183,15.006449,-0.0004532403870825826,0.014239832,-0.00028340626,14.014600000123664,14.665000000123712,-1.2938764999999999,1.2938764999999999
7.4,19.441229,-99.17259,2240.3423,111.05929520000002,0.0034601537,0.019561745,15.008009,-0.0002414634099413331,0.0128793875,-0.0006666569,7.93020000011353,8.276700000113522,-2.367025,2.367025
7.5,19.440472,-99.17209,2240.338,112.55999000000001,0.004533777,0.020269666,15.006948,-0.0004500278441838025,0.012037995,-0.0013051729,12.063349999716252,12.709139999716228,-3.0897759999999996,3.0897759999999996
7.6,19.440485,-99.17242,2240.3394,114.06077160000001,0.004648934,0.02172333,15.007816,-0.00032249476233904263,0.011937474,-0.00014610153,10.738900000067645,11.201680000067654,-1.4874055,1.4874055
7.7,19.441141,-99.17205,2240.3408,115.56162600000002,0.004933988,0.01931617,15.008544,-0.0002748710732168484,0.0128170205,-0.0011571535,9.33299999996433,9.72743999996436,-2.9676622,2.9676622
7.8,19.441149,-99.171974,2240.3433,117.06270700000002,0.003810526,0.01719872,15.01081,-6.418118458087532e-05,0.010448447,-0.001156302,7.105029999909789,7.197129999909805,-2.7250838500000003,2.7250838500000003
7.9,19.440773,-99.17217,2240.338,118.56332560000003,0.0035939482,0.020959187,15.006186,-0.0005436793889404884,0.0112908175,-0.0015199971,12.021419999716215,12.801599999716245,-3.35430515,3.35430515
8.0,19.440884,-99.17244,2240.3403,120.06408215000002,0.0031331498,0.018313155,15.0075655,-0.00025330313047099194,0.01246341,-0.0019272668,9.970630000066194,10.334120000066207,-4.141776500000001,4.141776500000001
8.1,19.440989,-99.17175,2240.3396,121.56500965000001,0.0038389903,0.022972766,15.009275,-0.00037765154999059355,0.010209312,-0.00073451333,10.508920000117882,11.050850000117862,-1.8195602000000002,1.8195602000000002
8.2,19.441315,-99.17222,2240.3408,123.06577465000001,0.0020086116,0.018724732,15.00765,-0.0002834355324797157,0.013456271,0.00089954206,9.45259999996432,9.859329999964359,0.5193920000000001,-0.5193920000000001
8.3,19.440702,-99.17242,2240.3367,124.56633335000004,0.004885577,0.022966057,15.005587,-0.0005976514967863773,0.012798156,-0.00054265576,13.21953000007204,14.077160000072013,-2.0870395,2.0870395
8.4,19.440908,-99.172424,2240.339,126.06698755000004,0.0041676825,0.018610593,15.006542,-0.0003879024195687292,0.013377394,-0.001056122,11.07512999996726,11.631769999967275,-2.8306335000000002,2.8306335000000002
8.5,19.44104,-99.17212,2240.34,127.56773005000004,0.002908139,0.020662144,15.007425,-0.00039556095497878197,0.011259873,-0.0012801385,10.153469999763558,10.72109999976351,-2.9498122,2.9498122
8.6,19.440622,-99.17218,2240.3364,129.06834195000002,0.0043687355,0.01870415,15.006119,-0.0005765365214866948,0.010034799,-0.0015578511,13.62019999976934,14.447529999769358,-3.3666460000000002,3.3666460000000002
8.7,19.441145,-99.17217,2240.3389,130.56916985,0.0035478454,0.02464709,15.008279,-0.0005749825150332075,0.010144654,0.00043486955,11.10049999971477,11.925599999714791,-0.26404767500000004,0.26404767500000004
8.8,19.440321,-99.17243,2240.3367,132.06976445000004,0.0033422306,0.021025546,15.005946,-0.0005277281740062762,0.011799396,-0.00043250248,13.361280000072043,14.118570000072054,-1.629796,1.629796
8.9,19.441196,-99.17227,2240.3394,133.57047360000004,0.003563715,0.020931136,15.0070915,-0.00041350520291290874,0.0116640935,-0.0007253348,10.705350000067654,11.298730000067678,-2.1518953,2.1518953
9.0,19.44082,-99.17205,2240.3396,135.07129150000003,0.003024389,0.020326685,15.008179,-0.000439114954354695,0.008569173,-0.00028756724,10.539220000117894,11.169350000117845,-1.2831185999999999,1.2831185999999999
9.1,19.441086,-99.17212,2240.3418,136.57210680000003,0.003438269,0.017100021,15.008153,-8.99790938338246e-05,0.014268034,-0.0010357541,8.524799999760603,8.653919999760603,-2.7640255,2.7640255
9.2,19.44056,-99.17202,2240.3398,138.07296530000002,0.003932525,0.020892046,15.008585,-0.0003126132302345297,0.011222475,-0.0011717876,10.379199999713308,10.827799999713307,-2.7451138,2.7451138
9.3,19.441141,-99.17212,2240.3396,139.57370740000005,0.0033227988,0.020446427,15.007421,-0.00035739371300636316,0.0123435585,8.8395434e-05,10.550540000117849,11.063400000117895,-0.79071715,0.79071715
9.4,19.440254,-99.171844,2240.3396,141.07461140000004,0.0035482938,0.01718624,15.00904,-0.00012312891923839115,0.011100291,-0.0006760498,10.822550000117872,10.99924000011788,-1.75404225,1.75404225
9.5,19.440498,-99.1724,2240.337,142.57517790000003,0.0039068274,0.017910887,15.005665,-0.00040997907110647226,0.013408835,0.00052044896,13.060059999919986,13.648379999919939,-0.19391267999999998,0.19391267999999998
9.6,19.440542,-99.17201,2240.3362,144.07593020000002,0.0044304677,0.018274222,15.007523,-0.0004173309862247722,0.010860269,-0.000265616,13.880569999719171,14.479439999719148,-1.0500102,1.0500102
9.7,19.440765,-99.172325,2240.3416,145.57677270000002,0.003524979,0.024963636,15.008425,-0.0004231149573288291,0.010072109,-4.5998095e-05,8.47629999971042,9.083469999710417,-1.1791608999999998,1.1791608999999998
9.8,19.440783,-99.1723,2240.3418,147.07756340000003,0.0031344832,0.018652614,15.007907,-0.0002906689813610056,0.011561076,-0.0006519595,8.467639999760593,8.88474999976063,-2.3400247999999997,2.3400247999999997
9.9,19.441105,-99.17207,2240.3398,148.57837940000002,0.003954486,0.018889602,15.00816,-0.0003494355258470573,0.010800936,-0.0004093127,10.348039999713308,10.84947999971331,-1.527018,1.527018
10.0,19.441149,-99.17208,2240.3413,150.079258,0.0041287076,0.019348085,15.008786,-0.00032328918734329934,0.011374959,-0.0013687692,8.83277999986251,9.296699999862483,-3.1921655,3.1921655
10.1,19.440037,-99.17218,2240.3335,151.579709,0.004982159,0.01977982,15.00451,-0.0007297768739308363,0.011122338,-0.0013973007,16.3548999997235,17.402129999723513,-3.01468325,3.01468325
10.2,19.441439,-99.17203,2240.3438,153.0807103,0.0031123117,0.01863021,15.010013,-0.0001898815308189673,0.010742583,-0.0002199587,6.523499999807939,6.795979999807912,-1.3310146999999999,1.3310146999999999
10.3,19.440796,-99.17185,2240.3374,154.5813936,0.0041177063,0.020899136,15.006833,-0.000575414570639368,0.011810728,-0.00018648551,12.507560000020362,13.333280000020352,-1.05601605,1.05601605
10.4,19.440727,-99.17199,2240.3372,156.0820421,0.0035717916,0.01946919,15.006485,-0.0004392473585103637,0.012093748,-0.00056087924,12.863079999970182,13.493399999970165,-1.6088025000000001,1.6088025000000001
10.5,19.440247,-99.172264,2240.3357,157.5825634,0.0034589977,0.02109167,15.005213,-0.0005198605803460376,0.013853525,-0.0004186531,14.27805999982104,15.02405999982102,-1.49676345,1.49676345
10.6,19.440605,-99.17232,2240.337,159.0831806,0.0045079226,0.019795693,15.006172,-0.0005519720693785064,0.013267352,3.6968573e-05,12.95867999991998,13.750759999919978,-0.9879633,0.9879633
10.7,19.440254,-99.17192,2240.3398,160.583993,0.0027835679,0.018072102,15.008124,-0.00033563761805855465,0.010732696,-0.00227174,10.43955999971331,10.921199999713338,-4.4055,4.4055
10.8,19.440588,-99.17208,2240.3381,162.0846964,0.0036198108,0.024708692,15.007034,-0.0004928710402296478,0.0104236165,-0.00025034818,11.916299999968714,12.623569999968709,-1.19546745,1.19546745
10.9,19.440401,-99.17186,2240.3357,163.5854188,0.0041884,0.022502724,15.007224,-0.0007129894262212815,0.008979258,-0.001036614,14.204079999821033,15.227219999820989,-2.3217185000000002,2.3217185000000002
11.0,19.440079,-99.17221,2240.337,165.0860456,0.003769221,0.020727377,15.006268,-0.000520306573256784,0.009424203,-0.0016814655,13.075499999919941,13.822139999919955,-3.4866247,3.4866247
11.1,19.439842,-99.17199,2240.3374,166.5867094,0.0041472483,0.021329366,15.006638,-0.0004364320280396391,0.012830737,-0.0012302863,12.668020000020363,13.294300000020371,-2.8753594999999996,2.8753594999999996
11.2,19.440464,-99.17195,2240.3367,168.0873618,0.004216408,0.020797413,15.006524,-0.0005872682251697976,0.010258564,-0.0011090252,13.247270000072035,14.090000000072052,-2.5429950000000003,2.5429950000000003
11.3,19.4406,-99.17238,2240.338,169.5879691,0.0028703571,0.02011466,15.006073,-0.0005407525605326621,0.010728513,-0.0011632299,11.987819999716237,12.763799999716241,-2.732633,2.732633
11.4,19.440254,-99.172264,2240.3394,171.0886419,0.0033334824,0.022421274,15.006728,-0.000553714229124784,0.013298172,-0.000649929,10.585050000067667,11.379630000067664,-2.1152979999999997,2.1152979999999997
11.5,19.440262,-99.172264,2240.338,172.5893599,0.004583042,0.019435514,15.00718,-0.00042429265746583204,0.010133444,-0.00064287207,12.115569999716229,12.724429999716222,-1.99701615,1.99701615
11.6,19.440681,-99.17191,2240.3394,174.090175,0.0034493394,0.020181604,15.008151,-0.0003777421423121738,0.011154289,-0.0001316902,10.728200000067659,11.270260000067651,-0.9963336500000001,0.9963336500000001
11.7,19.440449,-99.17236,2240.3381,175.59072339999997,0.0032460906,0.022314671,15.005484,-0.0004806271406916346,0.01341048,0.00032155338,11.87139999996873,12.56109999996869,-0.50455415,0.50455415
11.8,19.44116,-99.172646,2240.3408,177.09142434999998,0.0035761935,0.022365522,15.0070095,-0.00045052958624235335,0.011363422,-0.0002241906,9.229269999964345,9.875779999964323,-1.48536395,1.48536395
11.9,19.440022,-99.17233,2240.3384,178.59208585,0.0036842062,0.02061474,15.006615,-0.00044571425619888854,0.012325182,-0.0006089473,11.70429999981667,12.343899999816642,-2.0824415000000003,2.0824415000000003
12.0,19.440653,-99.172134,2240.3403,180.09291029999997,0.0030991856,0.020080894,15.0082445,-0.0004247386504168396,0.0090482,-0.00081129477,9.82010000006619,10.429600000066216,-2.1657115,2.1657115
12.1,19.440357,-99.17195,2240.343,181.59398789999997,0.003444961,0.01901881,15.010776,-0.00014593031255298974,0.009306674,-0.0019616024,7.382170000061819,7.591580000061867,-4.0548329999999995,4.0548329999999995
12.2,19.440598,-99.17183,2240.341,183.09488159999998,0.0034344916,0.018043723,15.008937,-0.0003855748937844209,0.010900113,-0.0012203191,9.113000000014551,9.66630000001453,-2.8539267500000003,2.8539267500000003
12.3,19.440853,-99.17244,2240.341,184.5955774,0.0023807075,0.0207979,15.006958,-0.00036199998418736735,0.012010646,0.00013820664,9.124660000014558,9.64413000001457,-0.8433166,0.8433166
12.4,19.4401,-99.172035,2240.3374,186.0962658,0.0046282723,0.022418413,15.006884,-0.0004947874160689203,0.011391959,-0.0008581794,12.589140000020393,13.299160000020379,-2.3146218,2.3146218
12.5,19.440615,-99.17238,2240.343,187.597084,0.0025384047,0.02012195,15.008182,-0.00019068989315905446,0.011921407,-0.00031465024,7.288360000061857,7.5620000000618575,-1.5925162000000002,1.5925162000000002
12.6,19.440216,-99.17173,2240.3406,189.09807289999998,0.0032729933,0.02352031,15.009889,-0.00039949823658657577,0.008267689,-0.0010906465,9.526619999914146,10.099899999914157,-2.381758,2.381758
12.7,19.4404,-99.172066,2240.3423,190.59891399999998,0.0020120936,0.02382781,15.008411,-0.000298794416195165,0.011108466,-0.001063229,7.880760000113526,8.309530000113512,-2.41652575,2.41652575
12.8,19.439741,-99.17228,2240.3394,192.0995211,0.0027914585,0.019794084,15.006071,-0.000432585338870427,0.011833834,-0.0018184821,10.723320000067645,11.344080000067663,-3.9797505,3.9797505
12.9,19.440454,-99.17201,2240.3435,193.6004723,0.0028274918,0.021354161,15.009512,-0.0002398188107334262,0.010676582,-0.00093486294,6.7674299999599725,7.111569999959954,-2.51598935,2.51598935
13.0,19.441015,-99.17195,2240.3423,195.1014051,0.003540075,0.01885698,15.009328,-0.00024118466431295794,0.011078767,0.00024913187,7.92190000011351,8.268000000113489,-0.6212227,0.6212227
13.1,19.440092,-99.17225,2240.337,196.6020016,0.00416644,0.02023809,15.005965,-0.0005102020463227675,0.011987728,-0.0007619889,13.007659999919952,13.739799999919967,-2.1668442,2.1668442
13.2,19.440393,-99.1719,2240.3406,198.10282909999998,0.003098614,0.021954928,15.008275,-0.0003780626997577066,0.010326208,-0.00088106043,9.527079999914122,10.069599999914146,-2.2077745,2.2077745
13.3,19.440077,-99.17192,2240.341,199.6037431,0.0036111667,0.02053162,15.00914,-0.0002445783923357382,0.010593261,-0.0010261124,9.258730000014566,9.609700000014527,-2.5990575,2.5990575
13.4,19.440144,-99.17227,2240.3381,201.1045176,0.005217927,0.018101256,15.007745,-0.00036510799771385244,0.011155131,-0.0010946856,12.00289999996869,12.526829999968697,-2.750686,2.750686
13.5,19.43972,-99.17188,2240.3394,202.6052899,0.0033908156,0.02060885,15.007723,-0.00046132400908552757,0.011938331,-0.0015701193,10.64550000006767,11.307500000067648,-3.27961265,3.27961265
13.6,19.440557,-99.17205,2240.3403,204.1061134,0.0030342438,0.020907216,15.008235,-0.000397770013864697,0.010989937,-0.0003878373,9.806630000066207,10.377430000066227,-1.444281,1.444281
13.7,19.440369,-99.17204,2240.339,205.6068161,0.0033862565,0.020551268,15.007027,-0.00045361669362538494,0.011304255,-0.00066364516,11.109129999967251,11.760069999967243,-2.0152224999999997,2.0152224999999997
13.8,19.440205,-99.172325,2240.3396,207.1074809,0.003608338,0.018087693,15.006648,-0.0002729895402569471,0.012255094,-0.0011768647,10.639260000117872,11.031000000117842,-2.99887475,2.99887475
13.9,19.440144,-99.17213,2240.3376,208.60813140000002,0.0027309854,0.022555426,15.006505,-0.0006252612425594902,0.008929827,-0.00038193905,12.388950000070565,13.28620000007055,-1.38089015,1.38089015
14.0,19.440489,-99.17194,2240.3413,210.10906720000003,0.0031995946,0.019092046,15.009358,-0.00028724737885920916,0.009391679,-0.0014449076,8.913799999862476,9.32599999986246,-3.06601635,3.06601635
14.1,19.440567,-99.17218,2240.3428,211.6099177,0.002608986,0.020122085,15.008505,-0.00015477351792791286,0.01217175,-0.0010432352,7.482700000011619,7.70480000001163,-2.62067375,2.62067375
14.2,19.44066,-99.1718,2240.3389,213.1107402,0.002570545,0.021865178,15.008225,-0.0005411149297646048,0.009112162,0.00021536436,11.084599999714783,11.861099999714781,-0.19836969999999998,0.19836969999999998
14.3,19.44022,-99.1724,2240.3376,214.61130890000004,0.003618374,0.019568812,15.005687,-0.0004238187899552336,0.012665597,-0.00013882389,12.477760000070589,13.085940000070593,-1.20611165,1.20611165
14.4,19.439802,-99.17211,2240.341,216.11211660000004,0.0025612095,0.022405114,15.008077,-0.00034659232061650606,0.011177388,-0.0012970224,9.121600000014553,9.618960000014567,-2.90742635,2.90742635
14.5,19.440615,-99.17219,2240.3394,217.61282250000002,0.0029245568,0.01959689,15.007059,-0.00043473864856998873,0.012160835,0.00041638868,10.69845000006768,11.322300000067685,-0.29524405000000004,0.29524405000000004
14.6,19.440306,-99.172104,2240.3389,219.11362580000002,0.0037744672,0.022741295,15.008033,-0.0005159720796469172,0.008211262,-0.00033193687,11.107019999714794,11.847439999714766,-1.34761665,1.34761665
14.7,19.43984,-99.17204,2240.3418,220.6143892,0.0021553212,0.020473868,15.007634,-0.00025629267731520845,0.012296774,-0.0010293928,8.441199999760613,8.808979999760595,-2.5659975,2.5659975
14.8,19.440207,-99.17211,2240.3389,222.11514200000002,0.0032602663,0.017134871,15.007528,-0.000313644589018433,0.011296281,-0.00046893005,11.281919999714773,11.731999999714787,-1.5143743,1.5143743
14.9,19.439428,-99.1723,2240.3376,223.6158077,0.0041405573,0.022173382,15.006657,-0.0005575678864715731,0.007287395,-0.001656617,12.45896000007059,13.259070000070551,-3.5204515,3.5204515
15.0,19.440174,-99.172035,2240.34,225.11661,0.0022234966,0.018290527,15.008023,-0.00012864111427296333,0.011961742,0.0013110797,10.330539999763516,10.515139999763505,1.4843454999999999,-1.4843454999999999
15.1,19.440247,-99.172134,2240.3374,226.6171653,0.0035312902,0.020900343,15.005553,-0.0004953309699426868,0.013526314,0.00062477094,12.584700000020348,13.295500000020354,0.059653863,-0.059653863
15.2,19.440088,-99.17193,2240.34,228.1179668,0.0024682668,0.021190342,15.008015,-0.0003826480649479811,0.0103082685,-0.00026004575,10.119479999763541,10.668579999763551,-1.1202652,1.1202652
15.3,19.440088,-99.171745,2240.341,229.61891460000004,0.0034566938,0.020819683,15.009478,-0.00034380486450266056,0.009961615,-0.0003504824,9.12410000001455,9.617460000014546,-1.3694549,1.3694549
15.4,19.440287,-99.17212,2240.3423,231.11988080000003,0.003331416,0.021963123,15.009662,-0.0003235958075202996,0.008837375,-0.001506914,7.90730000011348,8.37166000011348,-3.3754229999999996,3.3754229999999996
15.5,19.440067,-99.17163,2240.342,232.62092340000004,0.004131681,0.019480608,15.010426,-0.00012834146270997027,0.011177816,-0.0012776245,8.267399999810834,8.451569999810829,-2.880596,2.880596
15.6,19.440453,-99.172104,2240.3442,234.12193240000002,0.0029240474,0.022237498,15.01009,-4.529616721640648e-05,0.011831236,-0.0005074723,6.1727399999083445,6.237739999908342,-1.85681,1.85681
15.7,19.440342,-99.1722,2240.342,235.6227972,0.0031679764,0.018998317,15.008648,-0.00026341462805379117,0.011109847,-0.00091882405,8.218699999810838,8.596699999810824,-2.5014925,2.5014925
15.8,19.440575,-99.17195,2240.3396,237.12362120000003,0.0032303617,0.021887451,15.00824,-0.0005415191108308485,0.009295239,-0.00095642766,10.389000000117846,11.166080000117859,-2.2627595,2.2627595
15.9,19.440388,-99.172104,2240.3428,238.62462100000002,0.0031671075,0.018735148,15.009998,-0.00022355400324451395,0.008870534,-0.0008524522,7.407670000011649,7.728470000011669,-2.1557775,2.1557775
16.0,19.439438,-99.17207,2240.3376,240.1252704,0.0016577018,0.02083245,15.006494,-0.00042722645484342487,0.010635088,-0.00027649535,12.507600000070568,13.120670000070561,-0.95602435,0.95602435
16.1,19.43995,-99.17226,2240.3396,241.62594540000003,0.0030549315,0.02090351,15.00675,-0.0004778396848858499,0.010546015,-0.0009781199,10.467140000117865,11.152840000117862,-2.561947,2.561947
16.2,19.440353,-99.17216,2240.3406,243.12674090000002,0.0035684526,0.021108363,15.007955,-0.00040142854986585793,0.009467979,-0.0014145612,9.49639999991416,10.07244999991417,-3.1916505,3.1916505
16.3,19.439646,-99.172134,2240.3396,244.62753740000005,0.0031974935,0.022301834,15.007965,-0.0004681044954261031,0.007436688,-0.001945429,10.502200000117853,11.173930000117878,-3.8051614999999996,3.8051614999999996
16.4,19.440321,-99.172295,2240.339,246.12823140000003,0.004463452,0.021765608,15.00694,-0.0005042508283416843,0.010663421,-0.0013545735,10.988199999967264,11.71179999996724,-3.2557952,3.2557952
16.5,19.440302,-99.17161,2240.3428,247.62924190000007,0.0020838764,0.018623285,15.010105,-0.00020288501463785197,0.010635628,-0.00060701836,7.4395300000116436,7.730670000011628,-1.5642077,1.5642077
16.6,19.439693,-99.17214,2240.339,249.1299931000001,0.003126757,0.023056947,15.007512,-0.0005334494267509623,0.008442138,-0.0014932948,10.99337999996726,11.758879999967235,-3.10165575,3.10165575
16.7,19.44009,-99.17208,2240.3423,250.63085210000006,0.0010565214,0.018908277,15.00859,-0.00012611149758923787,0.010766423,-0.00053766166,8.095230000113531,8.276200000113477,-1.5217957500000001,1.5217957500000001
16.8,19.43995,-99.171814,2240.3408,252.13174760000007,0.00374751,0.018896908,15.008955,-0.00028820905125349016,0.011276969,-0.0015107348,9.326919999964332,9.740499999964356,-3.1799092,3.1799092
16.9,19.439615,-99.172066,2240.337,253.63242450000004,0.0041092453,0.026592761,15.006769,-0.0007411984705397446,0.007851633,-0.0010949848,12.80069999991997,13.864319999919985,-2.5064905,2.5064905
17.0,19.43966,-99.171936,2240.3406,255.13321560000006,0.0036491384,0.019339483,15.007911,-0.0003901184471079336,0.012259633,-0.00095650664,9.519099999914147,10.078919999914149,-2.5679906999999997,2.5679906999999997
17.1,19.439552,-99.17183,2240.3386,256.6339816000001,0.002403766,0.018480346,15.00766,-0.00041119161445609645,0.009331743,-0.0012787894,11.563299999866842,12.153359999866836,-2.66414835,2.66414835
17.2,19.439512,-99.17204,2240.3398,258.13472920000004,0.0038545348,0.020423763,15.007476,-0.00036816723075205654,0.012039633,-0.0020332646,10.31602999971335,10.844349999713302,-4.244487,4.244487
17.3,19.440207,-99.17197,2240.3384,259.6354802000001,0.0043613547,0.0222223,15.00751,-0.0005840417454402056,0.009263284,-0.0010044114,11.523499999816636,12.361599999816633,-2.44727265,2.44727265
17.4,19.440193,-99.17187,2240.3398,261.13627130000003,0.0031473455,0.022795387,15.007911,-0.0005806271124518011,0.009181223,-0.0011629905,10.14899999971334,10.982199999713316,-2.597011,2.597011
17.5,19.440165,-99.17217,2240.3406,262.6370436,0.0027639715,0.02176344,15.007723,-0.0003920278544814288,0.01022935,-0.00057414017,9.52859999991415,10.091159999914169,-1.7966371,1.7966371
17.6,19.439857,-99.17185,2240.3384,264.13777870000007,0.0037160085,0.01946121,15.007351,-0.0004930661621334715,0.011152622,-0.00081427646,11.589469999816629,12.297019999816655,-1.9966565,1.9966565
17.7,19.439606,-99.171455,2240.3423,265.63891650000005,0.0029789375,0.020021014,15.011378,-0.00023344250447029019,0.007800714,-0.001810407,8.002550000113501,8.337540000113506,-3.42148635,3.42148635
17.8,19.439558,-99.1718,2240.3386,267.1397666000001,0.0044587106,0.023390997,15.008501,-0.000767073020282787,0.006244029,-0.002458551,11.179099999866878,12.279849999866826,-4.641604500000001,4.641604500000001
17.9,19.439617,-99.17161,2240.3416,268.6408147000001,0.0031638588,0.019727826,15.010481,-0.0002910522565898876,0.008727091,-0.002159675,8.553139999710424,8.970799999710437,-3.9924725000000003,3.9924725000000003
18.0,19.4392,-99.17187,2240.3396,270.1416320000001,0.0035231314,0.021748867,15.008173,-0.0004333100774105298,0.008886811,-0.0025186718,10.531000000117842,11.15280000011785,-4.77525,4.77525
18.1,19.44006,-99.17186,2240.34,271.6424807000001,0.0028681357,0.020576797,15.008487,-0.0004473170433358099,0.010447199,-0.0009388159,10.004549999763526,10.646449999763547,-2.1591435,2.1591435
18.2,19.439508,-99.17192,2240.339,273.14331560000005,0.003357383,0.021340169,15.008349,-0.0004341881260258244,0.007769433,-0.001484232,11.102939999967248,11.725999999967257,-2.9615755,2.9615755
18.3,19.439793,-99.1719,2240.3408,274.64418930000005,0.002470178,0.019281656,15.008737,-0.0002845017344842935,0.010020719,-0.00066197384,9.45203999996437,9.860299999964354,-1.7884944,1.7884944
18.4,19.439825,-99.17208,2240.3406,276.1450414,0.0027298657,0.01673191,15.008521,-0.0003295818695995556,0.008482036,-0.00056570664,9.627049999914163,10.099999999914132,-1.758639,1.758639
18.5,19.439255,-99.17161,2240.34,277.64595470000006,0.0037289746,0.020854555,15.009133,-0.00043707314289992844,0.009569216,-0.001970151,10.074519999763538,10.701719999763554,-3.8148712000000002,3.8148712000000002
18.6,19.440609,-99.17216,2240.344,279.14688580000006,0.001829428,0.020328216,15.009311,-0.0001961254330254248,0.010297441,-0.00036969452,6.196039999858101,6.477479999858133,-1.3231657000000001,1.3231657000000001
18.7,19.439877,-99.17161,2240.3398,280.64784290000006,0.002542511,0.02057235,15.009571,-0.00043395119227256123,0.008224896,-0.000109231274,10.275779999713336,10.898499999713351,-0.6584322,0.6584322
18.8,19.440023,-99.17173,2240.3418,282.14887440000007,0.0024973736,0.0155209275,15.010315,-0.00022076654693608484,0.007689546,-0.00060777424,8.523399999760613,8.840199999760614,-1.5902085000000001,1.5902085000000001
18.9,19.440197,-99.17189,2240.3425,283.64985240000004,0.002209542,0.01625947,15.00978,-0.00016094773380188567,0.010586574,-0.0008047847,7.738979999708988,7.96993999970897,-2.0627603,2.0627603
19.0,19.44017,-99.171844,2240.342,285.1508213000001,0.0024785632,0.015273006,15.009689,-0.0002307247345818046,0.010579751,-0.0007022519,8.189269999810847,8.520359999810807,-1.8655298,1.8655298
19.1,19.439617,-99.17201,2240.3418,286.6516474000001,0.0021586516,0.021381244,15.008261,-0.00029373518318977985,0.010408708,-0.00049008685,8.44193999976062,8.863449999760633,-1.67424595,1.67424595
19.2,19.439419,-99.171844,2240.3416,288.1526276000001,0.0031288392,0.023078363,15.009802,-0.0003471358745580516,0.008195794,-0.0015600085,8.53082999971042,9.028969999710398,-3.154457,3.154457
19.3,19.439539,-99.17169,2240.3398,289.6535190000001,0.002539824,0.020520978,15.008914,-0.00037463412881473627,0.0077366726,-0.00083039625,10.398059999713325,10.935659999713323,-1.88372135,1.88372135
19.4,19.440403,-99.171844,2240.344,291.15456880000005,0.003010434,0.019582946,15.010498,-0.00017670383091344298,0.009890833,-0.00081235357,6.269899999858126,6.523469999858094,-2.16218365,2.16218365
19.5,19.440075,-99.17206,2240.339,292.65527850000007,0.0023231355,0.021208394,15.007097,-0.0006165295386086234,0.009071917,0.000363364,10.959399999967275,11.844119999967234,-0.23023694,0.23023694
19.6,19.43941,-99.17185,2240.3394,294.1561658000001,0.002882735,0.019054703,15.008873,-0.00028888500938536023,0.011135316,-0.00052341435,10.78915000006765,11.20370000006767,-1.43729265,1.43729265
19.7,19.439642,-99.1716,2240.3418,295.65720610000005,0.0022711856,0.020497873,15.010403,-0.00024650173716753073,0.0077911196,-0.00066746486,8.46223999976064,8.815969999760625,-1.5766136499999999,1.5766136499999999
19.8,19.43965,-99.171974,2240.343,297.15819180000005,0.0016045412,0.019992322,15.009857,-0.000260940760628047,0.007789352,-0.0008585886,7.269100000061826,7.64355000006185,-2.0530938499999998,2.0530938499999998
19.9,19.439205,-99.17178,2240.3418,298.6591081,0.0017316424,0.019111436,15.009163,-0.00031885713205108857,0.010566658,-0.0010462078,8.3317399997606,8.789299999760601,-2.334304,2.334304
20.0,19.439787,-99.171875,2240.342,300.1600503,0.0028017005,0.022518989,15.009422,-0.00034064110180701587,0.008774367,-0.0007117903,8.167399999810812,8.656219999810844,-1.9375368499999999,1.9375368499999999
20.1,19.439085,-99.17138,2240.3406,301.66108560000004,0.0025533307,0.020671662,15.010353,-0.00033282228736258103,0.008462603,-0.00081280473,9.560999999914145,10.03859999991414,-1.66894625,1.66894625
20.2,19.439564,-99.17154,2240.3394,303.1620794,0.0031103385,0.019132592,15.009938,-0.0004129128685192617,0.0074858116,-0.0011957085,10.620420000067668,11.212950000067679,-2.3154928499999996,2.3154928499999996
20.3,19.439342,-99.171715,2240.3408,304.6630084,0.0025017262,0.02266334,15.00929,-0.00048482226166531196,0.007849996,-0.0006968272,9.218979999964347,9.914699999964341,-1.6895275,1.6895275
20.4,19.439747,-99.171974,2240.3457,306.1641072,0.0013520812,0.018362656,15.010988,2.656445992405954e-05,0.010006734,-0.0019242626,4.7899600000574765,4.751840000057484,-3.8291183500000003,3.8291183500000003
20.5,19.439005,-99.17155,2240.3403,307.6652156,0.003464935,0.022123989,15.011084,-0.0003331358761779866,0.00734442,-0.0011063233,9.859150000066222,10.337200000066218,-2.3462062,2.3462062
20.6,19.439228,-99.17184,2240.34,309.1660421,0.0024533852,0.015756547,15.008265,-0.00014722647977246395,0.01068136,-0.0006709304,10.348849999763559,10.560119999763515,-1.69059775,1.69059775
20.7,19.439816,-99.171715,2240.3442,310.6670672,0.0016489645,0.020995025,15.010251,-0.00021007665196189716,0.009211334,-0.00046007748,6.006599999908303,6.308059999908323,-1.3261144999999999,1.3261144999999999
20.8,19.439695,-99.171875,2240.3403,312.16790100000003,0.0017716498,0.02108872,15.008338,-0.0004024041594643513,0.008529053,-0.0002811734,9.863120000066203,10.440570000066202,-1.0639358,1.0639358
20.9,19.439014,-99.17177,2240.3376,313.6686567,0.0024430316,0.023094423,15.007557,-0.0006252124620907589,0.009508462,-0.00052880583,12.393440000070598,13.29062000007059,-1.4678852,1.4678852
21.0,19.439594,-99.17176,2240.34,315.1695486,0.0015045541,0.018739022,15.008919,-0.00035257838260268086,0.007614826,0.0003000972,10.195399999763538,10.701349999763522,-0.00218655075,0.00218655075
21.1,19.439201,-99.17175,2240.3413,316.6704939,0.0021306917,0.017416768,15.009453,-0.00022678745255787794,0.009082942,-0.001456104,9.02403999986251,9.349479999862467,-2.9675700000000003,2.9675700000000003
21.2,19.439491,-99.17126,2240.344,318.17169019999994,0.0011168378,0.018395945,15.011963,-0.00022521253974634752,0.0076773586,-0.00050711207,6.2307399998581445,6.553919999858124,-1.14655415,1.14655415
21.3,19.439178,-99.17125,2240.3416,319.67274269999996,0.0010565748,0.01656944,15.010525,-0.00017534494593815029,0.008002312,-0.00023643415,8.730959999710421,8.982579999710424,-0.5003801999999999,0.5003801999999999
21.4,19.439053,-99.17148,2240.3386,321.17379989999995,0.0032921752,0.020236306,15.010572,-0.00039995119818668067,0.005777549,-0.0005725704,11.500199999866823,12.074129999866841,-1.2006895,1.2006895
21.5,19.438925,-99.171646,2240.3425,322.6748977,0.0027564345,0.020533074,15.010978,-0.0002455749079553465,0.007526596,-0.0018878378,7.768399999708947,8.120799999708936,-3.6680533000000004,3.6680533000000004
21.6,19.438942,-99.171616,2240.3396,324.1757878,0.00201777,0.017211404,15.008901,-0.00029941462519893095,0.010026778,-0.0015017352,10.590670000117882,11.020330000117895,-2.86148885,2.86148885
21.7,19.439623,-99.17156,2240.3433,325.6768791,0.0019759096,0.019538317,15.010913,-0.00020190243628087428,0.0077653797,-0.00020756474,7.004139999909796,7.293869999909759,-0.9050806499999999,0.9050806499999999
21.8,19.43923,-99.17197,2240.3418,327.17772010000004,0.0016427148,0.019657757,15.00841,-0.00031298953681791977,0.009160033,-0.00069973926,8.400299999760648,8.849439999760648,-1.8871300999999998,1.8871300999999998
21.9,19.43894,-99.17144,2240.3413,328.6788712,0.0022667919,0.015788957,15.011511,-7.096864099586364e-05,0.0066391965,-0.00013850079,9.117199999862464,9.219039999862503,-0.5205245500000001,0.5205245500000001
22.0,19.439676,-99.17212,2240.3442,330.1798316,0.0022847888,0.020277355,15.009604,-0.00033254354174882346,0.008019966,-0.0011005694,5.968899999908331,6.446099999908313,-2.7153761999999997,2.7153761999999997
22.1,19.439417,-99.17179,2240.3416,331.6807289,0.0016161912,0.017769698,15.008973,-0.00019105923112467098,0.009439192,-0.00033855566,8.783729999710431,9.0578999997104,-1.1982396,1.1982396
22.2,19.439346,-99.17159,2240.3408,333.1817109,0.0025985045,0.019631032,15.00982,-0.0003264808246371032,0.009140818,-0.0007309566,9.400599999964356,9.869099999964362,-1.78574235,1.78574235
22.3,19.439346,-99.17152,2240.3447,334.6829766,0.002628673,0.019586034,15.012657,-3.2668989535407397e-05,0.00792038,-0.0010215824,5.708019999806481,5.754899999806469,-2.2785282,2.2785282
22.4,19.439505,-99.1719,2240.342,336.1838403,0.0015275949,0.019774288,15.008637,-0.00029947734296334206,0.010103739,-0.0006407579,8.165619999810815,8.595369999810828,-1.6662025500000002,1.6662025500000002
22.5,19.439043,-99.17169,2240.3428,337.6848925,0.002120397,0.020540923,15.010522,-0.00020742856845359388,0.007775902,-0.0017214135,7.496000000011634,7.793660000011641,-3.29621625,3.29621625
22.6,19.439081,-99.17162,2240.3389,339.1857314,0.0030810605,0.018257141,15.008389,-0.00037228569708651685,0.009767502,-0.0011285786,11.184469999714793,11.718699999714772,-2.30559915,2.30559915
22.7,19.439028,-99.17179,2240.344,340.6868975,0.0023983412,0.022033446,15.011661,-0.0002783135816642666,0.0069575524,-0.0015913573,6.172669999858101,6.572049999858109,-3.1235192499999997,3.1235192499999997
22.8,19.439524,-99.171455,2240.3457,342.1881334,0.0009154755,0.018613849,15.012359,-4.889198602375123e-05,0.008235726,-0.00076384435,4.683420000057481,4.753580000057468,-1.607227,1.607227
22.9,19.439058,-99.17168,2240.342,343.68916785,0.0016250245,0.019977357,15.0103445,-0.00022423693003952673,0.0072078547,-0.0009515948,8.283019999810847,8.604799999810837,-1.8971617,1.8971617
23.0,19.439285,-99.17146,2240.3408,345.19022225000003,0.0018883608,0.017840933,15.010544,-0.00030142159365891745,0.006991337,-0.00014616505,9.419759999964356,9.852299999964373,-0.64701765,0.64701765
23.1,19.439472,-99.17174,2240.343,346.69120695000004,0.0017925124,0.020177666,15.009847,-0.0002670174152568295,0.008486721,-0.0007451361,7.244300000061855,7.627470000061862,-1.81189075,1.81189075
23.2,19.43868,-99.17124,2240.34,348.19242045,0.0030617143,0.018654574,15.012135,-0.0003315261202581979,0.0047602365,-0.0016831404,10.140779999763538,10.616519999763511,-2.8533188,2.8533188
23.3,19.43956,-99.17172,2240.3447,349.69354585,0.00042914564,0.017385349,15.011254,-3.809059231608175e-05,0.009632639,-0.0013962263,5.643169999806446,5.6978299998064585,-2.653339,2.653339
23.4,19.438833,-99.17144,2240.343,351.19467205,0.0018237532,0.019599736,15.011262,-0.00033264807135399856,0.0063419556,-0.002004501,7.218350000061832,7.695700000061834,-3.65997965,3.65997965
23.5,19.439257,-99.171715,2240.3423,352.69572535000003,0.0026648196,0.022303544,15.010533,-0.0003009407574655864,0.007822827,-0.00084076484,7.9298000001135165,8.361650000113514,-2.0923719999999997,2.0923719999999997
23.6,19.438921,-99.17146,2240.34,354.19667955000006,0.0027385615,0.018605132,15.009542,-0.0003127526030432074,0.008068417,-0.0013316073,10.16289999976351,10.611699999763516,-2.57296835,2.57296835
23.7,19.43845,-99.17164,2240.3406,355.69762065000003,0.002039461,0.023277551,15.009411,-0.0005549685841400264,0.0060934657,-0.0010973285,9.474619999914125,10.270999999914125,-2.2380926999999997,2.2380926999999997
23.8,19.439142,-99.17175,2240.3413,357.19858045000007,0.0013563955,0.018414568,15.009598,-0.00021734494431282204,0.008875624,-0.00020806614,8.94642999986246,9.258319999862465,-0.8327376000000001,0.8327376000000001
23.9,19.43894,-99.1714,2240.3403,358.69963425000003,0.0019171471,0.019394554,15.010538,-0.0003955400490587211,0.0061873524,-0.0011984888,9.731900000066219,10.299500000066189,-2.138495,2.138495
24.0,19.438978,-99.17143,2240.3408,360.2006254500001,0.0024148235,0.020726115,15.009912,-0.0003137560872652962,0.00827694,-0.0007474384,9.394759999964322,9.84499999996433,-1.6197717999999999,1.6197717999999999
24.1,19.438648,-99.171394,2240.34,361.7016588500001,0.0027650783,0.01765465,15.010334,-0.00036119859056393295,0.008091071,-0.0016831978,10.093799999763519,10.612119999763536,-3.1662205,3.1662205
24.2,19.438824,-99.17163,2240.341,363.20260995000007,0.0015991564,0.020289559,15.009511,-0.0003144041708250464,0.009840005,-0.0011094296,9.110050000014553,9.561220000014544,-2.15871515,2.15871515
24.3,19.438921,-99.17186,2240.34,364.7034731500001,0.0019063113,0.017145038,15.008632,-0.00037788151511458374,0.009861057,-0.00066773576,10.115879999763536,10.658139999763534,-1.7247005,1.7247005
24.4,19.43894,-99.17163,2240.341,366.20444265000003,0.0013260724,0.015988715,15.009695,-0.00023178396797465486,0.008449036,-0.0015180878,9.262450000014553,9.595060000014541,-2.89696,2.89696
24.5,19.438917,-99.17171,2240.3464,367.70559225000005,0.0011373328,0.02163446,15.011496,-8.356794405632149e-05,0.009995828,-0.0003269929,3.918480000005843,4.038400000005822,-1.117477,1.117477
24.6,19.439177,-99.17168,2240.3423,369.2065694500001,0.0018850638,0.019299354,15.009772,-0.0002801254282128845,0.00942137,-0.0010871288,7.913900000113529,8.31588000011351,-2.3795775,2.3795775
24.7,19.439083,-99.17206,2240.3416,370.70742265000007,0.0028181064,0.02336488,15.008532,-0.00024854354888911785,0.010677458,-0.00090756716,8.558479999710414,8.91513999971039,-2.2792836999999997,2.2792836999999997
24.8,19.43915,-99.17166,2240.341,372.2082997500001,0.0017428586,0.021940235,15.008771,-0.000381094058205956,0.0078049237,-0.00040031446,9.153870000014535,9.700740000014548,-1.16134875,1.16134875
24.9,19.438902,-99.17173,2240.3423,373.70923795000004,0.0020071198,0.019522473,15.009382,-0.00034574214650236353,0.00976142,-0.0019465599,7.822300000113501,8.318440000113526,-3.7123128,3.7123128
25.0,19.438948,-99.17185,2240.3389,375.2099431500001,0.0024265933,0.019506246,15.007052,-0.00045778394014673235,0.00978757,-0.0009038225,11.178949999714803,11.83586999971476,-2.0913149,2.0913149
25.1,19.439564,-99.171646,2240.3445,376.7109914500001,0.00019073939,0.019136574,15.010483,-0.00017142856974925786,0.0075834626,0.0012322606,5.834139999756246,6.080139999756227,1.5355783,-1.5355783
25.2,19.438736,-99.17183,2240.3376,378.2116885500001,0.0026195198,0.019964084,15.006971,-0.0004995121535771473,0.00902775,-0.0013633699,12.378300000070567,13.095100000070602,-2.6550085,2.6550085
25.3,19.438269,-99.17154,2240.3423,379.7127895500001,0.002077894,0.020924956,15.01101,-0.00023846689443444155,0.0069189453,-0.00119923,8.0295000001135,8.371700000113492,-2.4978535,2.4978535
25.4,19.438662,-99.171585,2240.3423,381.21383205000006,0.001733508,0.020171296,15.010425,-0.00017870383085030585,0.008380135,-0.0010449868,8.054280000113522,8.31072000011352,-2.1817865,2.1817865
25.5,19.438618,-99.17137,2240.3398,382.7148064500001,0.0018013538,0.01834279,15.009744,-0.00037531705554799915,0.0079096025,-0.0017228895,10.27927999971331,10.817859999713335,-3.00835075,3.00835075
25.6,19.438898,-99.171394,2240.342,384.2157715500001,0.0012820975,0.017006699,15.009651,-0.000144480835231611,0.010755929,-0.0003223778,8.259769999810828,8.467099999810841,-0.8299730000000001,0.8299730000000001
25.7,19.439,-99.17167,2240.3394,385.71667220000006,0.0027027729,0.02032093,15.0090065,-0.0004962717362619526,0.007768634,-0.00082617655,10.633970000067677,11.346120000067685,-1.91040245,1.91040245
25.8,19.438995,-99.17161,2240.3418,387.2177010000001,0.0016065164,0.021246172,15.010288,-0.00039459928265507153,0.007617223,-0.0006401245,8.20094999976061,8.767199999760635,-1.4345935,1.4345935
25.9,19.438332,-99.17148,2240.3418,388.7187751000001,0.0024876043,0.020160072,15.010741,-0.00014580487701554916,0.008600193,-0.0010611685,8.55332999976065,8.76255999976064,-2.2276607499999996,2.2276607499999996
26.0,19.438528,-99.171295,2240.3435,390.2198967000001,0.00084078056,0.019722667,15.011216,-0.00015658536457387667,0.0075595407,-0.00052159734,6.905819999959988,7.130519999959972,-1.1243804,1.1243804
26.1,19.439194,-99.17184,2240.3408,391.72085650000014,0.0029760222,0.02071466,15.009598,-0.00039328917832875303,0.006927504,-0.0010542683,9.25062999996436,9.814999999964357,-2.2887385,2.2887385
26.2,19.43921,-99.1718,2240.3403,393.2217213000001,0.0012681875,0.019844577,15.008648,-0.00040957488998970244,0.007161944,0.00037598703,9.782640000066237,10.370380000066234,0.15770455,-0.15770455
26.3,19.439047,-99.171684,2240.342,394.72275360000015,0.0015714557,0.018878262,15.010323,-0.00031697559914020885,0.0073504196,-0.0016597022,8.094399999810832,8.549259999810829,-3.0497444999999996,3.0497444999999996
26.4,19.438564,-99.17127,2240.341,396.2237755000001,0.002307151,0.020589616,15.010219,-0.0002929059149683993,0.00832465,-0.0012082065,9.153200000014579,9.573520000014526,-2.15959735,2.15959735
26.5,19.438393,-99.171486,2240.3394,397.72470170000014,0.0014784174,0.019991837,15.009262,-0.0005144389790085909,0.007452785,-0.0009399957,10.527920000067638,11.26614000006765,-1.78179935,1.78179935
26.6,19.438808,-99.171745,2240.3418,399.22573140000014,0.001465861,0.01907755,15.010297,-0.00041535886113111466,0.007389332,-0.0007882449,8.273639999760633,8.869679999760649,-1.8346157,1.8346157
26.7,19.438543,-99.17185,2240.3384,400.7265160000001,0.002824862,0.023089178,15.007846,-0.0005719163139509373,0.0060301414,-0.0010312997,11.55839999981663,12.379099999816674,-2.1508719999999997,2.1508719999999997
26.8,19.438366,-99.17153,2240.3416,402.22755940000013,0.002584009,0.017823994,15.010434,-0.0004255539812798837,0.007991762,-0.0027692588,8.424399999710431,9.035069999710402,-4.9939275,4.9939275
26.9,19.43871,-99.17186,2240.341,403.7283515000001,0.002044076,0.020929009,15.007921,-0.00035560277246739187,0.009046665,-0.002035219,9.22964000001457,9.739930000014567,-3.9895004999999997,3.9895004999999997
27.0,19.438509,-99.171715,2240.3364,405.2291656000001,0.002814461,0.021879304,15.008141,-0.0005887873884075393,0.0067776265,-6.148847e-05,13.566829999769368,14.411739999769338,-0.5555891000000001,0.5555891000000001
27.1,19.438738,-99.17205,2240.3435,406.7300049000001,0.00046788802,0.022201966,15.008393,-0.00023219511777834256,0.008953205,-0.00063501444,6.802799999959973,7.135999999960006,-1.640985,1.640985
27.2,19.438887,-99.17181,2240.3416,408.2309008000001,0.0020688002,0.021475848,15.008959,-0.0003628083464505168,0.008657715,-0.0011012245,8.55786999971042,9.078499999710402,-2.4308082499999997,2.4308082499999997
27.3,19.438454,-99.1718,2240.3394,409.7316765000001,0.002502491,0.019184,15.007757,-0.0004233727970038781,0.009146755,-0.0015752992,10.674040000067691,11.281580000067663,-3.1088804999999997,3.1088804999999997
27.4,19.438923,-99.17161,2240.3413,411.2326733000001,0.0019987652,0.020892762,15.009968,-0.00032961671280137616,0.0072369026,-0.0008180971,8.850199999862468,9.323199999862481,-1.73644595,1.73644595
27.5,19.438835,-99.17153,2240.3433,412.7337295000001,0.000998364,0.017755147,15.010562,-6.222996507645067e-05,0.00895808,-0.00086432544,7.107299999909799,7.196599999909779,-1.80141115,1.80141115
27.6,19.438166,-99.1719,2240.3433,414.2345994000001,0.00033129513,0.019763928,15.008699,-0.00023055748720396792,0.009811477,-0.00092686905,7.0513999999097905,7.382249999909789,-2.1954355,2.1954355
27.7,19.438358,-99.17154,2240.343,415.73579240000004,0.0021780494,0.017962657,15.01193,-0.00026000696278197536,0.008476515,-0.0032736328,7.166440000061868,7.539550000061865,-5.752917,5.752917
27.8,19.43813,-99.17155,2240.3396,417.23675090000006,0.001585814,0.017579086,15.009585,-0.00034796514275057183,0.00791232,-0.0017775012,10.52500000011787,11.024330000117857,-3.1451173,3.1451173
27.9,19.438784,-99.17167,2240.3416,418.73764040000003,0.0011214991,0.021658614,15.008895,-0.00034118465575078626,0.008373174,-0.00033486783,8.57992999971043,9.069529999710426,-0.9657976,0.9657976
28.0,19.438337,-99.1715,2240.3408,420.23870510000006,0.0036747095,0.021409322,15.010647,-0.0004101045066254918,0.006587873,-0.0023115645,9.253129999964358,9.841629999964368,-4.2419295,4.2419295
28.1,19.438437,-99.17136,2240.3433,421.7399003000001,0.0012913977,0.014256866,15.011952,-3.041811845752695e-05,0.007963049,-0.0015369151,7.107799999909787,7.151449999909801,-2.809687,2.809687
28.2,19.438425,-99.17161,2240.3425,423.2409532000001,0.0021516068,0.020353202,15.010529,-0.00019857142596152382,0.007895402,-0.0010407743,7.815119999708941,8.100069999708978,-2.2773682,2.2773682
28.3,19.438812,-99.17173,2240.344,424.7419686000001,0.0009556259,0.019518688,15.010154,-5.604181178798298e-05,0.010083283,-0.0013760969,6.4182399998581445,6.498659999858091,-2.8004579,2.8004579
28.4,19.43867,-99.17184,2240.3425,426.24290780000007,0.0015212066,0.020487621,15.009392,-0.00032755399525402927,0.008099454,-0.0015016776,7.698599999708961,8.168639999708944,-3.05320625,3.05320625
28.5,19.438572,-99.17172,2240.338,427.7436689000001,0.0040911073,0.020371828,15.007611,-0.000626933715771495,0.007888214,-0.0015242272,11.86944999971621,12.769099999716218,-3.0946177500000003,3.0946177500000003
28.6,19.438435,-99.17147,2240.3423,429.2447358000001,0.0018771673,0.01806986,15.010669,-0.000217101041885328,0.008765646,-0.0017323238,7.9252000001134775,8.236740000113514,-3.2266183,3.2266183
28.7,19.438509,-99.17159,2240.3416,430.7457353000001,0.0013320453,0.01609061,15.009995,-0.00023045295759278374,0.0072576357,-0.0008741852,8.667899999710414,8.998599999710393,-1.91604205,1.91604205
28.8,19.438066,-99.17122,2240.3423,432.24684280000014,0.0023582345,0.02002589,15.011075,-0.0002907665423283216,0.0077924067,-0.002072579,7.905350000113515,8.322600000113482,-3.60371965,3.60371965
28.9,19.438171,-99.17175,2240.3396,433.74778170000013,0.002495677,0.01672211,15.009389,-0.00022021602431476919,0.007708491,-0.002124939,10.647560000117892,10.963570000117898,-3.84655525,3.84655525
29.0,19.438978,-99.171814,2240.3425,435.2487269000002,0.000897621,0.01948157,15.009452,-0.00032520556344847203,0.008140461,0.00040979637,7.657869999708964,8.124539999708986,0.099972885,-0.099972885
29.1,19.438549,-99.17148,2240.341,436.7498034000002,0.002092755,0.022464398,15.010765,-0.0004117839488505844,0.0059512313,-0.00019733026,9.068330000014555,9.659240000014563,-0.7779918,0.7779918
29.2,19.43793,-99.17171,2240.3357,438.25052780000016,0.0037140693,0.02531391,15.007244,-0.0007329336666674052,0.006626752,-0.0009776093,14.115059999821028,15.16681999982103,-2.0492586999999998,2.0492586999999998
29.3,19.43819,-99.17163,2240.341,439.7514859000002,0.0017448465,0.021549862,15.009581,-0.000376585348051633,0.0064831814,-0.0010136098,9.18317000001457,9.723570000014547,-2.0819206500000003,2.0819206500000003
29.4,19.438143,-99.1719,2240.3384,441.25225630000017,0.0019047938,0.019293003,15.007704,-0.0005438466362777704,0.009213743,-4.4505403e-05,11.557979999816666,12.338399999816659,-0.693042,0.693042
29.5,19.438332,-99.17168,2240.34,442.7530746000002,0.0015205691,0.019798785,15.008183,-0.0004054146119348927,0.008104836,-0.0009722138,10.116499999763505,10.698269999763511,-2.0034958,2.0034958
29.6,19.438087,-99.17134,2240.3408,444.2542082000002,0.0025128175,0.021233369,15.011336,-0.00033054354196868514,0.006255972,-0.0010056987,9.33711999996433,9.811449999964339,-1.9535348000000001,1.9535348000000001
29.7,19.438232,-99.17191,2240.34,445.7549797000002,0.0011851116,0.021575939,15.007715,-0.0004951358480392998,0.0071875965,-0.0005608857,10.120599999763556,10.83111999976353,-1.4998150000000001,1.4998150000000001
29.8,19.438032,-99.17173,2240.3428,447.25590790000024,0.0013237001,0.01930824,15.009282,-0.00025492682374591414,0.009875699,-0.0019112427,7.394820000011634,7.76064000001162,-3.5534274999999997,3.5534274999999997
29.9,19.438421,-99.171524,2240.341,448.7568356000002,0.0011449403,0.019723594,15.009277,-0.00032629267134704203,0.007751479,0.00040491327,9.23770000001457,9.705930000014575,0.18306029999999998,-0.18306029999999998
30.0,19.4384,-99.17178,2240.3438,450.2578466000002,0.00208379,0.020894941,15.01011,-0.00026214633545847783,0.00840607,-0.0014368152,6.4118199998079035,6.787999999807937,-3.0743412,3.0743412
